{
    "sensors": [
        {
            "id": 0,
            "name": "sensor1",
            "state": "active",
            "location": "Antwerp"
        },
        {
            "id": 1,
            "name": "sensor2",
            "state": "active",
            "location": "Ghent"
        },
        {
            "id": 2,
            "name": "sensor3",
            "state": "active",
            "location": "Bruges"
        },
        {
            "id": 3,
            "name": "sensor4",
            "state": "active",
            "location": "Leuven"
        },
        {
            "id": 4,
            "name": "sensor5",
            "state": "active",
            "location": "Mechelen"
        },
        {
            "id": 5,
            "name": "sensor6",
            "state": "active",
            "location": "Aalst"
        },
        {
            "id": 6,
            "name": "sensor7",
            "state": "active",
            "location": "Hasselt"
        },
        {
            "id": 7,
            "name": "sensor8",
            "state": "active",
            "location": "Kortrijk"
        },
        {
            "id": 8,
            "name": "sensor9",
            "state": "active",
            "location": "Ostend"
        },
        {
            "id": 9,
            "name": "sensor10",
            "state": "active",
            "location": "Sint-Niklaas"
        }
    ],
    "locations": [
        "Antwerp", "Ghent", "Bruges", "Leuven", "Mechelen", "Aalst", "Hasselt", "Kortrijk", "Ostend", "Sint-Niklaas"
        ]
}